{
"type": "FeatureCollection",
"name": "eb_locations_updated",
"crs": { "type": "name", "properties": { "name": "urn:ogc:def:crs:OGC:1.3:CRS84" } },
"features": [
{ "type": "Feature", "properties": { "title": "Loch Ness", "formatted_address": "Loch Ness, United Kingdom", "place_id": "ChIJKTeiTcMWj0gRL5H-9MtJ19Q", "url": "https://www.britannica.com/place/Loch-Ness-lake-Scotland-United-Kingdom", "show": true, "lang": "en", "zoom": 9, "display_type": "default" }, "geometry": { "type": "Point", "coordinates": [ -4.4243817, 57.3228575 ] } },
{ "type": "Feature", "properties": { "title": "New Delhi", "formatted_address": "New Delhi, Delhi, India", "place_id": "ChIJLbZ-NFv9DDkRzk0gTkm3wlI", "url": "https://www.britannica.com/place/Delhi", "show": true, "lang": "en", "zoom": 9, "display_type": "default" }, "geometry": { "type": "Point", "coordinates": [ 77.2088282, 28.6139298 ] } },
{ "type": "Feature", "properties": { "title": "Chicago", "formatted_address": "Chicago, IL, USA", "place_id": "ChIJ7cv00DwsDogRAMDACa2m4K8", "url": "https://www.britannica.com/place/Illinois-state", "show": true, "lang": "en", "zoom": 9, "display_type": "default" }, "geometry": { "type": "Point", "coordinates": [ -87.6323879, 41.88325 ] } },
{ "type": "Feature", "properties": { "title": "Tierra del Fuego", "formatted_address": "Tierra del Fuego", "place_id": "ChIJfUmnsdW-5ZURPAib3OPTgwg", "url": "https://www.britannica.com/place/Tierra-del-Fuego-archipelago-South-America", "show": true, "lang": "en", "zoom": 9, "display_type": "default" }, "geometry": { "type": "Point", "coordinates": [ -69.323672355000213, -54.211611946472843 ] } },
{ "type": "Feature", "properties": { "title": "Panama Canal", "formatted_address": "Panama Canal, Panama", "place_id": "ChIJLUnNMUtfq48RYAlKoecR3dk", "url": "https://www.britannica.com/topic/Panama-Canal", "show": true, "lang": "en", "zoom": 9, "display_type": "default" }, "geometry": { "type": "Point", "coordinates": [ -79.728516103702646, 9.14380343698933 ] } },
{ "type": "Feature", "properties": { "title": "Grand Canyon National Park", "formatted_address": "Grand Canyon National Park, Arizona, USA", "place_id": "ChIJFU2bda4SM4cRKSCRyb6pOB8", "url": "https://www.britannica.com/place/Grand-Canyon-National-Park", "show": true, "lang": "en", "zoom": 9, "display_type": "default" }, "geometry": { "type": "Point", "coordinates": [ -112.3535253, 36.2678855 ] } },
{ "type": "Feature", "properties": { "title": "Sydney Harbour Bridge", "formatted_address": "Sydney Harbour Bridge, Sydney Hbr Brg, Sydney NSW, Australia", "place_id": "ChIJ49XqJV2uEmsRPsTAF7eOlGg", "url": "https://www.britannica.com/topic/Sydney-Harbour-Bridge", "show": true, "lang": "en", "zoom": 9, "display_type": "default" }, "geometry": { "type": "Point", "coordinates": [ 151.2107871, -33.8523063 ] } },
{ "type": "Feature", "properties": { "title": "Ginza", "formatted_address": "Ginza, Chuo City, Tokyo 104-0061, Japan", "place_id": "ChIJu2-DAeeLGGARUZipC7OFRmA", "url": "https://www.britannica.com/place/Ginza-Japan", "show": true, "lang": "en", "zoom": 9, "display_type": "default" }, "geometry": { "type": "Point", "coordinates": [ 139.7664859, 35.6712228 ] } },
{ "type": "Feature", "properties": { "title": "Carthage", "formatted_address": "Carthage, Tunisia", "place_id": "ChIJLc4kRLi04hIRo5KfnerRv8A", "url": "https://www.britannica.com/place/Carthage-ancient-city-Tunisia", "show": true, "lang": "en", "zoom": 9, "display_type": "default" }, "geometry": { "type": "Point", "coordinates": [ 10.3329494, 36.8625853 ] } },
{ "type": "Feature", "properties": { "title": "Amazon Rainforest", "formatted_address": "Amazon Rainforest - Codajás, State of Amazonas, 69450-000, Brazil", "place_id": "ChIJhUN0QlNg6JERx39KOcFtPD0", "url": "https://www.britannica.com/place/Amazon-Rainforest", "show": true, "lang": "en", "zoom": 9, "display_type": "default" }, "geometry": { "type": "Point", "coordinates": [ -62.2158805, -3.4653053 ] } },
{ "type": "Feature", "properties": { "title": "Langjökull", "formatted_address": "Langjökull, Iceland", "place_id": "ChIJhdLb3DQP1EgRuhL3PgFfQBA", "url": "https://www.britannica.com/place/Langjokull", "show": true, "lang": "en", "zoom": 9, "display_type": "default" }, "geometry": { "type": "Point", "coordinates": [ -20.1531477, 64.6561868 ] } },
{ "type": "Feature", "properties": { "title": "South Pole", "formatted_address": "South Pole, Chicago, IL 60617, USA", "place_id": "ChIJwU8EtRInDogRzNryEssL61k", "url": "https://www.britannica.com/place/South-Pole", "show": true, "lang": "en", "zoom": 9, "display_type": "default" }, "geometry": { "type": "Point", "coordinates": [ -87.5594895, 41.6839239 ] } },
{ "type": "Feature", "properties": { "title": "Colorado", "formatted_address": "Colorado, USA", "place_id": "ChIJt1YYm3QUQIcR_6eQSTGDVMc", "url": "https://www.britannica.com/place/Colorado-state", "show": true, "lang": "en", "zoom": 9, "display_type": "default" }, "geometry": { "type": "Point", "coordinates": [ -105.7820674, 39.5500507 ] } },
{ "type": "Feature", "properties": { "title": "Woodstock", "formatted_address": "Woodstock, NY, USA", "place_id": "ChIJK0zPwDMH3YkR_HEHiO--XLg", "url": "https://www.britannica.com/event/Woodstock", "show": true, "lang": "en", "zoom": 9, "display_type": "default" }, "geometry": { "type": "Point", "coordinates": [ -74.1181971, 42.0409247 ] } },
{ "type": "Feature", "properties": { "title": "Kilimanjaro Region", "formatted_address": "Kilimanjaro Region, Tanzania", "place_id": "ChIJTwPS81dqOBgRjZfI59mwNnA", "url": null, "show": true, "lang": "en", "zoom": 9, "display_type": "default" }, "geometry": { "type": "Point", "coordinates": [ 37.8087693, -4.1336927 ] } },
{ "type": "Feature", "properties": { "title": "Washington", "formatted_address": "Washington, VA, USA", "place_id": "ChIJJyztKd-2t4kRL1MTwPjQg68", "url": null, "show": true, "lang": "en", "zoom": 9, "display_type": "default" }, "geometry": { "type": "Point", "coordinates": [ -77.0562669, 38.8718568 ] } },
{ "type": "Feature", "properties": { "title": "Andes", "formatted_address": "Andes", "place_id": "ChIJL51OWvySh5YRVHkUAg1TFos", "url": null, "show": true, "lang": "en", "zoom": 9, "display_type": "default" }, "geometry": { "type": "Point", "coordinates": [ -66.7752471, -21.1607667 ] } },
{ "type": "Feature", "properties": { "title": "Krasnaya ploshad", "formatted_address": "Krasnaya ploshad, Moskva, Russia, 109012", "place_id": "ChIJGaSPc1pKtUYRHzFSa1B9NHw", "url": null, "show": true, "lang": "en", "zoom": 9, "display_type": "default" }, "geometry": { "type": "Point", "coordinates": [ 37.620795, 55.7539303 ] } },
{ "type": "Feature", "properties": { "title": "Avenue Gustave Eiffel", "formatted_address": "Av. Gustave Eiffel, 75007 Paris, France", "place_id": "ChIJLU7jZClu5kcR4PcOOO6p3I0", "url": null, "show": true, "lang": "en", "zoom": 9, "display_type": "default" }, "geometry": { "type": "Point", "coordinates": [ 2.2944813, 48.858370099999988 ] } },
{ "type": "Feature", "properties": { "title": "Bosphorus", "formatted_address": "Bosphorus, Türkiye", "place_id": "ChIJn5k8FGjKyhQRtd_p_WFbAGM", "url": null, "show": true, "lang": "en", "zoom": 9, "display_type": "default" }, "geometry": { "type": "Point", "coordinates": [ 29.1290157, 41.2213125 ] } },
{ "type": "Feature", "properties": { "title": "Nile", "formatted_address": "Nile", "place_id": "ChIJrUWsRqizWhQRIqs0_CQzO2I", "url": null, "show": true, "lang": "en", "zoom": 9, "display_type": "default" }, "geometry": { "type": "Point", "coordinates": [ 32.157707379050763, 23.559792365734339 ] } }
]
}
